name,size,en_name,longitude,latitude
漳州市,2,Zhangzhou,117.647298,24.515297
龙岩市,1,Longyan,117.017362,25.075884
舟山市,1,Zhoushan,122.207395,29.985578
绍兴市,1,Shaoxing,120.582886,30.051549
泉州市,1,Quanzhou,118.675724,24.874452
海口市,1,Haikou,110.198418,20.045805
